{
    "type": "FeatureCollection",
    "features": [
        {
            "type": "Feature",
            "properties": {
                "name": "莘庄",
                "pinyin": "XinZhuang",
                "line": [
                    "1号线",
                    "5号线",
                    "5号线"
                ]
            },
            "geometry": {
                "type": "Point",
                "coordinates": [
                    121.385373,
                    31.111152
                ]
            }
        },
        {
            "type": "Feature",
            "properties": {
                "name": "外环路",
                "pinyin": "WaiHuan Lu",
                "line": [
                    "1号线"
                ]
            },
            "geometry": {
                "type": "Point",
                "coordinates": [
                    121.39302,
                    31.120899
                ]
            }
        },
        {
            "type": "Feature",
            "properties": {
                "name": "莲花路",
                "pinyin": "LianHua Lu",
                "line": [
                    "1号线"
                ]
            },
            "geometry": {
                "type": "Point",
                "coordinates": [
                    121.40291,
                    31.1309
                ]
            }
        },
        {
            "type": "Feature",
            "properties": {
                "name": "锦江乐园",
                "pinyin": "JinJiangLeYuan",
                "line": [
                    "1号线"
                ]
            },
            "geometry": {
                "type": "Point",
                "coordinates": [
                    121.414107,
                    31.142217
                ]
            }
        },
        {
            "type": "Feature",
            "properties": {
                "name": "上海南站",
                "pinyin": "ShangHai NanZhan",
                "line": [
                    "1号线",
                    "3号线",
                    "15号线"
                ]
            },
            "geometry": {
                "type": "Point",
                "coordinates": [
                    121.430041,
                    31.154579
                ]
            }
        },
        {
            "type": "Feature",
            "properties": {
                "name": "漕宝路",
                "pinyin": "CaoBao Lu",
                "line": [
                    "1号线",
                    "12号线"
                ]
            },
            "geometry": {
                "type": "Point",
                "coordinates": [
                    121.433143,
                    31.168344
                ]
            }
        },
        {
            "type": "Feature",
            "properties": {
                "name": "上海体育馆",
                "pinyin": "ShangHai TiYuGuan",
                "line": [
                    "1号线",
                    "4号线"
                ]
            },
            "geometry": {
                "type": "Point",
                "coordinates": [
                    121.437423,
                    31.182813
                ]
            }
        },
        {
            "type": "Feature",
            "properties": {
                "name": "徐家汇",
                "pinyin": "XuJiaHui",
                "line": [
                    "1号线",
                    "9号线",
                    "11号线",
                    "11号线"
                ]
            },
            "geometry": {
                "type": "Point",
                "coordinates": [
                    121.436837,
                    31.195338
                ]
            }
        },
        {
            "type": "Feature",
            "properties": {
                "name": "衡山路",
                "pinyin": "HengShan Lu",
                "line": [
                    "1号线"
                ]
            },
            "geometry": {
                "type": "Point",
                "coordinates": [
                    121.446424,
                    31.204528
                ]
            }
        },
        {
            "type": "Feature",
            "properties": {
                "name": "常熟路",
                "pinyin": "ChangShu Lu",
                "line": [
                    "1号线",
                    "7号线"
                ]
            },
            "geometry": {
                "type": "Point",
                "coordinates": [
                    121.449141,
                    31.213524
                ]
            }
        },
        {
            "type": "Feature",
            "properties": {
                "name": "陕西南路",
                "pinyin": "ShaanXi NanLu",
                "line": [
                    "1号线",
                    "10号线",
                    "10号线",
                    "12号线"
                ]
            },
            "geometry": {
                "type": "Point",
                "coordinates": [
                    121.458744,
                    31.21515
                ]
            }
        },
        {
            "type": "Feature",
            "properties": {
                "name": "一大会址·黄陂南路",
                "pinyin": "Yi DaHui Zhi HuangPi NanLu",
                "line": [
                    "1号线"
                ]
            },
            "geometry": {
                "type": "Point",
                "coordinates": [
                    121.473306,
                    31.222745
                ]
            }
        },
        {
            "type": "Feature",
            "properties": {
                "name": "人民广场",
                "pinyin": "RenMin GuangChang",
                "line": [
                    "1号线",
                    "2号线",
                    "8号线"
                ]
            },
            "geometry": {
                "type": "Point",
                "coordinates": [
                    121.475137,
                    31.232781
                ]
            }
        },
        {
            "type": "Feature",
            "properties": {
                "name": "新闸路",
                "pinyin": "XinZha Lu",
                "line": [
                    "1号线"
                ]
            },
            "geometry": {
                "type": "Point",
                "coordinates": [
                    121.468151,
                    31.238373
                ]
            }
        },
        {
            "type": "Feature",
            "properties": {
                "name": "汉中路",
                "pinyin": "HanZhong Lu",
                "line": [
                    "1号线",
                    "12号线",
                    "13号线"
                ]
            },
            "geometry": {
                "type": "Point",
                "coordinates": [
                    121.458699,
                    31.241883
                ]
            }
        },
        {
            "type": "Feature",
            "properties": {
                "name": "上海火车站",
                "pinyin": "ShangHai HuoCheZhan",
                "line": [
                    "1号线",
                    "3号线",
                    "4号线"
                ]
            },
            "geometry": {
                "type": "Point",
                "coordinates": [
                    121.457939,
                    31.249632
                ]
            }
        },
        {
            "type": "Feature",
            "properties": {
                "name": "中山北路",
                "pinyin": "ZhongShan BeiLu",
                "line": [
                    "1号线"
                ]
            },
            "geometry": {
                "type": "Point",
                "coordinates": [
                    121.459204,
                    31.258891
                ]
            }
        },
        {
            "type": "Feature",
            "properties": {
                "name": "延长路",
                "pinyin": "YanChang Lu",
                "line": [
                    "1号线"
                ]
            },
            "geometry": {
                "type": "Point",
                "coordinates": [
                    121.455329,
                    31.271675
                ]
            }
        },
        {
            "type": "Feature",
            "properties": {
                "name": "上海马戏城",
                "pinyin": "ShangHai MaXiCheng",
                "line": [
                    "1号线"
                ]
            },
            "geometry": {
                "type": "Point",
                "coordinates": [
                    121.452023,
                    31.279895
                ]
            }
        },
        {
            "type": "Feature",
            "properties": {
                "name": "汶水路",
                "pinyin": "WenShui Lu",
                "line": [
                    "1号线"
                ]
            },
            "geometry": {
                "type": "Point",
                "coordinates": [
                    121.450251,
                    31.292556
                ]
            }
        },
        {
            "type": "Feature",
            "properties": {
                "name": "彭浦新村",
                "pinyin": "PengPuXinCun",
                "line": [
                    "1号线"
                ]
            },
            "geometry": {
                "type": "Point",
                "coordinates": [
                    121.448642,
                    31.306604
                ]
            }
        },
        {
            "type": "Feature",
            "properties": {
                "name": "共康路",
                "pinyin": "GongKang Lu",
                "line": [
                    "1号线"
                ]
            },
            "geometry": {
                "type": "Point",
                "coordinates": [
                    121.447063,
                    31.318936
                ]
            }
        },
        {
            "type": "Feature",
            "properties": {
                "name": "通河新村",
                "pinyin": "TongHe XinCun",
                "line": [
                    "1号线"
                ]
            },
            "geometry": {
                "type": "Point",
                "coordinates": [
                    121.441546,
                    31.33113
                ]
            }
        },
        {
            "type": "Feature",
            "properties": {
                "name": "呼兰路",
                "pinyin": "HuLan Lu",
                "line": [
                    "1号线"
                ]
            },
            "geometry": {
                "type": "Point",
                "coordinates": [
                    121.437711,
                    31.339703
                ]
            }
        },
        {
            "type": "Feature",
            "properties": {
                "name": "共富新村",
                "pinyin": "GongFu XinCun",
                "line": [
                    "1号线"
                ]
            },
            "geometry": {
                "type": "Point",
                "coordinates": [
                    121.434063,
                    31.355082
                ]
            }
        },
        {
            "type": "Feature",
            "properties": {
                "name": "宝安公路",
                "pinyin": "BaoAn GongLu",
                "line": [
                    "1号线"
                ]
            },
            "geometry": {
                "type": "Point",
                "coordinates": [
                    121.430914,
                    31.369555
                ]
            }
        },
        {
            "type": "Feature",
            "properties": {
                "name": "友谊西路",
                "pinyin": "YouYi XiLu",
                "line": [
                    "1号线"
                ]
            },
            "geometry": {
                "type": "Point",
                "coordinates": [
                    121.427953,
                    31.381296
                ]
            }
        },
        {
            "type": "Feature",
            "properties": {
                "name": "富锦路",
                "pinyin": "FuJin Lu",
                "line": [
                    "1号线"
                ]
            },
            "geometry": {
                "type": "Point",
                "coordinates": [
                    121.424661,
                    31.39226
                ]
            }
        },
        {
            "type": "Feature",
            "properties": {
                "name": "浦东国际机场",
                "pinyin": "PuDong GuoJi JiChang",
                "line": [
                    "2号线",
                    "磁悬浮"
                ]
            },
            "geometry": {
                "type": "Point",
                "coordinates": [
                    121.805591,
                    31.150958
                ]
            }
        },
        {
            "type": "Feature",
            "properties": {
                "name": "海天三路",
                "pinyin": "HaiTian San Lu",
                "line": [
                    "2号线"
                ]
            },
            "geometry": {
                "type": "Point",
                "coordinates": [
                    121.796878,
                    31.168459
                ]
            }
        },
        {
            "type": "Feature",
            "properties": {
                "name": "远东大道",
                "pinyin": "YuanDong DaDao",
                "line": [
                    "2号线"
                ]
            },
            "geometry": {
                "type": "Point",
                "coordinates": [
                    121.755301,
                    31.199385
                ]
            }
        },
        {
            "type": "Feature",
            "properties": {
                "name": "凌空路",
                "pinyin": "LingKong Lu",
                "line": [
                    "2号线"
                ]
            },
            "geometry": {
                "type": "Point",
                "coordinates": [
                    121.724095,
                    31.192861
                ]
            }
        },
        {
            "type": "Feature",
            "properties": {
                "name": "川沙",
                "pinyin": "ChuanSha",
                "line": [
                    "2号线"
                ]
            },
            "geometry": {
                "type": "Point",
                "coordinates": [
                    121.69821,
                    31.186741
                ]
            }
        },
        {
            "type": "Feature",
            "properties": {
                "name": "华夏东路",
                "pinyin": "HuaXia DongLu",
                "line": [
                    "2号线"
                ]
            },
            "geometry": {
                "type": "Point",
                "coordinates": [
                    121.680972,
                    31.196575
                ]
            }
        },
        {
            "type": "Feature",
            "properties": {
                "name": "创新中路",
                "pinyin": "ChuangXin ZhongLu",
                "line": [
                    "2号线"
                ]
            },
            "geometry": {
                "type": "Point",
                "coordinates": [
                    121.673713,
                    31.213871
                ]
            }
        },
        {
            "type": "Feature",
            "properties": {
                "name": "唐镇",
                "pinyin": "TangZhen",
                "line": [
                    "2号线"
                ]
            },
            "geometry": {
                "type": "Point",
                "coordinates": [
                    121.656269,
                    31.214107
                ]
            }
        },
        {
            "type": "Feature",
            "properties": {
                "name": "广兰路",
                "pinyin": "GuangLan Lu",
                "line": [
                    "2号线"
                ]
            },
            "geometry": {
                "type": "Point",
                "coordinates": [
                    121.621072,
                    31.21105
                ]
            }
        },
        {
            "type": "Feature",
            "properties": {
                "name": "金科路",
                "pinyin": "JinKe Lu",
                "line": [
                    "2号线"
                ]
            },
            "geometry": {
                "type": "Point",
                "coordinates": [
                    121.601989,
                    31.204213
                ]
            }
        },
        {
            "type": "Feature",
            "properties": {
                "name": "张江高科",
                "pinyin": "ZhangJiang GaoKe",
                "line": [
                    "2号线"
                ]
            },
            "geometry": {
                "type": "Point",
                "coordinates": [
                    121.587687,
                    31.201832
                ]
            }
        },
        {
            "type": "Feature",
            "properties": {
                "name": "龙阳路",
                "pinyin": "LongYang Lu",
                "line": [
                    "2号线",
                    "7号线",
                    "16号线",
                    "磁悬浮"
                ]
            },
            "geometry": {
                "type": "Point",
                "coordinates": [
                    121.557634,
                    31.203575
                ]
            }
        },
        {
            "type": "Feature",
            "properties": {
                "name": "世纪公园",
                "pinyin": "ShiJi GongYuan",
                "line": [
                    "2号线"
                ]
            },
            "geometry": {
                "type": "Point",
                "coordinates": [
                    121.550909,
                    31.209421
                ]
            }
        },
        {
            "type": "Feature",
            "properties": {
                "name": "上海科技馆",
                "pinyin": "ShangHai KeJiGuan",
                "line": [
                    "2号线"
                ]
            },
            "geometry": {
                "type": "Point",
                "coordinates": [
                    121.544439,
                    31.21882
                ]
            }
        },
        {
            "type": "Feature",
            "properties": {
                "name": "世纪大道",
                "pinyin": "ShiJi DaDao",
                "line": [
                    "2号线",
                    "4号线",
                    "6号线",
                    "9号线"
                ]
            },
            "geometry": {
                "type": "Point",
                "coordinates": [
                    121.527213,
                    31.228682
                ]
            }
        },
        {
            "type": "Feature",
            "properties": {
                "name": "东昌路",
                "pinyin": "DongChang Lu",
                "line": [
                    "2号线"
                ]
            },
            "geometry": {
                "type": "Point",
                "coordinates": [
                    121.515556,
                    31.23327
                ]
            }
        },
        {
            "type": "Feature",
            "properties": {
                "name": "陆家嘴",
                "pinyin": "LuJiaZui",
                "line": [
                    "2号线"
                ]
            },
            "geometry": {
                "type": "Point",
                "coordinates": [
                    121.502262,
                    31.238195
                ]
            }
        },
        {
            "type": "Feature",
            "properties": {
                "name": "南京东路",
                "pinyin": "NanJing DongLu",
                "line": [
                    "2号线",
                    "10号线",
                    "10号线"
                ]
            },
            "geometry": {
                "type": "Point",
                "coordinates": [
                    121.484628,
                    31.238101
                ]
            }
        },
        {
            "type": "Feature",
            "properties": {
                "name": "南京西路",
                "pinyin": "NanJing XiLu",
                "line": [
                    "2号线",
                    "12号线",
                    "13号线"
                ]
            },
            "geometry": {
                "type": "Point",
                "coordinates": [
                    121.459971,
                    31.229853
                ]
            }
        },
        {
            "type": "Feature",
            "properties": {
                "name": "静安寺",
                "pinyin": "JingAnSi",
                "line": [
                    "2号线",
                    "7号线"
                ]
            },
            "geometry": {
                "type": "Point",
                "coordinates": [
                    121.446221,
                    31.223083
                ]
            }
        },
        {
            "type": "Feature",
            "properties": {
                "name": "江苏路",
                "pinyin": "JiangSuLu",
                "line": [
                    "2号线",
                    "11号线",
                    "11号线"
                ]
            },
            "geometry": {
                "type": "Point",
                "coordinates": [
                    121.430642,
                    31.220411
                ]
            }
        },
        {
            "type": "Feature",
            "properties": {
                "name": "中山公园",
                "pinyin": "ZhongShan GongYuan",
                "line": [
                    "2号线",
                    "3号线",
                    "4号线"
                ]
            },
            "geometry": {
                "type": "Point",
                "coordinates": [
                    121.415773,
                    31.217948
                ]
            }
        },
        {
            "type": "Feature",
            "properties": {
                "name": "娄山关路",
                "pinyin": "LouShanGuan Lu",
                "line": [
                    "2号线",
                    "15号线"
                ]
            },
            "geometry": {
                "type": "Point",
                "coordinates": [
                    121.404058,
                    31.211158
                ]
            }
        },
        {
            "type": "Feature",
            "properties": {
                "name": "威宁路",
                "pinyin": "WeiNing Lu",
                "line": [
                    "2号线"
                ]
            },
            "geometry": {
                "type": "Point",
                "coordinates": [
                    121.387285,
                    31.21487
                ]
            }
        },
        {
            "type": "Feature",
            "properties": {
                "name": "北新泾",
                "pinyin": "BeiXinJing",
                "line": [
                    "2号线"
                ]
            },
            "geometry": {
                "type": "Point",
                "coordinates": [
                    121.373998,
                    31.216395
                ]
            }
        },
        {
            "type": "Feature",
            "properties": {
                "name": "淞虹路",
                "pinyin": "SongHong Lu",
                "line": [
                    "2号线"
                ]
            },
            "geometry": {
                "type": "Point",
                "coordinates": [
                    121.359588,
                    31.218212
                ]
            }
        },
        {
            "type": "Feature",
            "properties": {
                "name": "虹桥2号航站楼",
                "pinyin": "HongQiao 2 Hao HangZhanLou",
                "line": [
                    "2号线",
                    "10号线"
                ]
            },
            "geometry": {
                "type": "Point",
                "coordinates": [
                    121.3263,
                    31.194211
                ]
            }
        },
        {
            "type": "Feature",
            "properties": {
                "name": "虹桥火车站",
                "pinyin": "HongQiao HuoCheZhan",
                "line": [
                    "2号线",
                    "10号线",
                    "17号线"
                ]
            },
            "geometry": {
                "type": "Point",
                "coordinates": [
                    121.31895,
                    31.194022
                ]
            }
        },
        {
            "type": "Feature",
            "properties": {
                "name": "徐泾东",
                "pinyin": "Xu JingDong",
                "line": [
                    "2号线"
                ]
            },
            "geometry": {
                "type": "Point",
                "coordinates": [
                    121.299204,
                    31.188367
                ]
            }
        },
        {
            "type": "Feature",
            "properties": {
                "name": "江杨北路",
                "pinyin": "JiangYang BeiLu",
                "line": [
                    "3号线"
                ]
            },
            "geometry": {
                "type": "Point",
                "coordinates": [
                    121.439819,
                    31.407858
                ]
            }
        },
        {
            "type": "Feature",
            "properties": {
                "name": "铁力路",
                "pinyin": "TieLi Lu",
                "line": [
                    "3号线"
                ]
            },
            "geometry": {
                "type": "Point",
                "coordinates": [
                    121.461139,
                    31.40812
                ]
            }
        },
        {
            "type": "Feature",
            "properties": {
                "name": "友谊路",
                "pinyin": "YouYi Lu",
                "line": [
                    "3号线"
                ]
            },
            "geometry": {
                "type": "Point",
                "coordinates": [
                    121.475924,
                    31.404016
                ]
            }
        },
        {
            "type": "Feature",
            "properties": {
                "name": "宝杨路",
                "pinyin": "BaoYang Lu",
                "line": [
                    "3号线"
                ]
            },
            "geometry": {
                "type": "Point",
                "coordinates": [
                    121.479574,
                    31.395315
                ]
            }
        },
        {
            "type": "Feature",
            "properties": {
                "name": "水产路",
                "pinyin": "ShuiChan Lu",
                "line": [
                    "3号线"
                ]
            },
            "geometry": {
                "type": "Point",
                "coordinates": [
                    121.488247,
                    31.381302
                ]
            }
        },
        {
            "type": "Feature",
            "properties": {
                "name": "淞滨路",
                "pinyin": "SongBin Lu",
                "line": [
                    "3号线"
                ]
            },
            "geometry": {
                "type": "Point",
                "coordinates": [
                    121.492818,
                    31.370928
                ]
            }
        },
        {
            "type": "Feature",
            "properties": {
                "name": "张华浜",
                "pinyin": "ZhangHuaBang",
                "line": [
                    "3号线"
                ]
            },
            "geometry": {
                "type": "Point",
                "coordinates": [
                    121.498671,
                    31.358016
                ]
            }
        },
        {
            "type": "Feature",
            "properties": {
                "name": "淞发路",
                "pinyin": "SongFa Lu",
                "line": [
                    "3号线"
                ]
            },
            "geometry": {
                "type": "Point",
                "coordinates": [
                    121.50039,
                    31.345135
                ]
            }
        },
        {
            "type": "Feature",
            "properties": {
                "name": "长江南路",
                "pinyin": "ChangJiang NanLu",
                "line": [
                    "3号线"
                ]
            },
            "geometry": {
                "type": "Point",
                "coordinates": [
                    121.491482,
                    31.332062
                ]
            }
        },
        {
            "type": "Feature",
            "properties": {
                "name": "殷高西路",
                "pinyin": "YinGao XiLu",
                "line": [
                    "3号线"
                ]
            },
            "geometry": {
                "type": "Point",
                "coordinates": [
                    121.484856,
                    31.320005
                ]
            }
        },
        {
            "type": "Feature",
            "properties": {
                "name": "江湾镇",
                "pinyin": "JiangWanZhen",
                "line": [
                    "3号线"
                ]
            },
            "geometry": {
                "type": "Point",
                "coordinates": [
                    121.485064,
                    31.305566
                ]
            }
        },
        {
            "type": "Feature",
            "properties": {
                "name": "大柏树",
                "pinyin": "DaBaiShu",
                "line": [
                    "3号线"
                ]
            },
            "geometry": {
                "type": "Point",
                "coordinates": [
                    121.483216,
                    31.289433
                ]
            }
        },
        {
            "type": "Feature",
            "properties": {
                "name": "赤峰路",
                "pinyin": "ChiFeng Lu",
                "line": [
                    "3号线"
                ]
            },
            "geometry": {
                "type": "Point",
                "coordinates": [
                    121.482429,
                    31.281247
                ]
            }
        },
        {
            "type": "Feature",
            "properties": {
                "name": "虹口足球场",
                "pinyin": "HongKou ZuQiuChang",
                "line": [
                    "3号线",
                    "8号线"
                ]
            },
            "geometry": {
                "type": "Point",
                "coordinates": [
                    121.479154,
                    31.271392
                ]
            }
        },
        {
            "type": "Feature",
            "properties": {
                "name": "东宝兴路",
                "pinyin": "DongBaoXing Lu",
                "line": [
                    "3号线"
                ]
            },
            "geometry": {
                "type": "Point",
                "coordinates": [
                    121.480202,
                    31.259886
                ]
            }
        },
        {
            "type": "Feature",
            "properties": {
                "name": "宝山路",
                "pinyin": "BaoShan Lu",
                "line": [
                    "3号线",
                    "4号线"
                ]
            },
            "geometry": {
                "type": "Point",
                "coordinates": [
                    121.476298,
                    31.251523
                ]
            }
        },
        {
            "type": "Feature",
            "properties": {
                "name": "中潭路",
                "pinyin": "ZhongTan Lu",
                "line": [
                    "3号线",
                    "4号线"
                ]
            },
            "geometry": {
                "type": "Point",
                "coordinates": [
                    121.441001,
                    31.254568
                ]
            }
        },
        {
            "type": "Feature",
            "properties": {
                "name": "镇坪路",
                "pinyin": "ZhenPing Lu",
                "line": [
                    "3号线",
                    "4号线",
                    "7号线"
                ]
            },
            "geometry": {
                "type": "Point",
                "coordinates": [
                    121.429779,
                    31.246369
                ]
            }
        },
        {
            "type": "Feature",
            "properties": {
                "name": "曹杨路",
                "pinyin": "CaoYang Lu",
                "line": [
                    "3号线",
                    "4号线",
                    "11号线",
                    "11号线"
                ]
            },
            "geometry": {
                "type": "Point",
                "coordinates": [
                    121.417701,
                    31.239302
                ]
            }
        },
        {
            "type": "Feature",
            "properties": {
                "name": "金沙江路",
                "pinyin": "JinShaJiang Lu",
                "line": [
                    "3号线",
                    "4号线",
                    "13号线"
                ]
            },
            "geometry": {
                "type": "Point",
                "coordinates": [
                    121.41315,
                    31.232004
                ]
            }
        },
        {
            "type": "Feature",
            "properties": {
                "name": "延安西路",
                "pinyin": "YanAn XiLu",
                "line": [
                    "3号线",
                    "4号线"
                ]
            },
            "geometry": {
                "type": "Point",
                "coordinates": [
                    121.417062,
                    31.209616
                ]
            }
        },
        {
            "type": "Feature",
            "properties": {
                "name": "虹桥路",
                "pinyin": "HongQiao Lu",
                "line": [
                    "3号线",
                    "4号线",
                    "10号线",
                    "10号线"
                ]
            },
            "geometry": {
                "type": "Point",
                "coordinates": [
                    121.420814,
                    31.197524
                ]
            }
        },
        {
            "type": "Feature",
            "properties": {
                "name": "宜山路",
                "pinyin": "YiShan Lu",
                "line": [
                    "3号线",
                    "4号线",
                    "9号线"
                ]
            },
            "geometry": {
                "type": "Point",
                "coordinates": [
                    121.427194,
                    31.186717
                ]
            }
        },
        {
            "type": "Feature",
            "properties": {
                "name": "漕溪路",
                "pinyin": "CaoXi Lu",
                "line": [
                    "3号线"
                ]
            },
            "geometry": {
                "type": "Point",
                "coordinates": [
                    121.43841,
                    31.176746
                ]
            }
        },
        {
            "type": "Feature",
            "properties": {
                "name": "龙漕路",
                "pinyin": "LongCao Lu",
                "line": [
                    "3号线",
                    "12号线"
                ]
            },
            "geometry": {
                "type": "Point",
                "coordinates": [
                    121.444383,
                    31.169458
                ]
            }
        },
        {
            "type": "Feature",
            "properties": {
                "name": "石龙路",
                "pinyin": "ShiLong Lu",
                "line": [
                    "3号线"
                ]
            },
            "geometry": {
                "type": "Point",
                "coordinates": [
                    121.443205,
                    31.157949
                ]
            }
        },
        {
            "type": "Feature",
            "properties": {
                "name": "海伦路",
                "pinyin": "HaiLun Lu",
                "line": [
                    "4号线",
                    "10号线",
                    "10号线"
                ]
            },
            "geometry": {
                "type": "Point",
                "coordinates": [
                    121.488697,
                    31.259303
                ]
            }
        },
        {
            "type": "Feature",
            "properties": {
                "name": "临平路",
                "pinyin": "LinPing Lu",
                "line": [
                    "4号线"
                ]
            },
            "geometry": {
                "type": "Point",
                "coordinates": [
                    121.500696,
                    31.260874
                ]
            }
        },
        {
            "type": "Feature",
            "properties": {
                "name": "大连路",
                "pinyin": "DaLian Lu",
                "line": [
                    "4号线",
                    "12号线"
                ]
            },
            "geometry": {
                "type": "Point",
                "coordinates": [
                    121.513088,
                    31.257938
                ]
            }
        },
        {
            "type": "Feature",
            "properties": {
                "name": "杨树浦路",
                "pinyin": "YangShuPu Lu",
                "line": [
                    "4号线"
                ]
            },
            "geometry": {
                "type": "Point",
                "coordinates": [
                    121.51721,
                    31.251935
                ]
            }
        },
        {
            "type": "Feature",
            "properties": {
                "name": "浦东大道",
                "pinyin": "PuDong DaDao",
                "line": [
                    "4号线"
                ]
            },
            "geometry": {
                "type": "Point",
                "coordinates": [
                    121.519385,
                    31.239974
                ]
            }
        },
        {
            "type": "Feature",
            "properties": {
                "name": "浦电路(4号线)",
                "pinyin": "PuDian Lu (4 Hao Xian)",
                "line": [
                    "4号线"
                ]
            },
            "geometry": {
                "type": "Point",
                "coordinates": [
                    121.53208,
                    31.222285
                ]
            }
        },
        {
            "type": "Feature",
            "properties": {
                "name": "蓝村路",
                "pinyin": "LanCun Lu",
                "line": [
                    "4号线",
                    "6号线"
                ]
            },
            "geometry": {
                "type": "Point",
                "coordinates": [
                    121.527627,
                    31.211672
                ]
            }
        },
        {
            "type": "Feature",
            "properties": {
                "name": "塘桥",
                "pinyin": "TangQiao",
                "line": [
                    "4号线"
                ]
            },
            "geometry": {
                "type": "Point",
                "coordinates": [
                    121.51869,
                    31.209762
                ]
            }
        },
        {
            "type": "Feature",
            "properties": {
                "name": "南浦大桥",
                "pinyin": "NanPu DaQiao",
                "line": [
                    "4号线"
                ]
            },
            "geometry": {
                "type": "Point",
                "coordinates": [
                    121.499725,
                    31.208504
                ]
            }
        },
        {
            "type": "Feature",
            "properties": {
                "name": "西藏南路",
                "pinyin": "XiZang NanLu",
                "line": [
                    "4号线",
                    "8号线"
                ]
            },
            "geometry": {
                "type": "Point",
                "coordinates": [
                    121.489555,
                    31.201967
                ]
            }
        },
        {
            "type": "Feature",
            "properties": {
                "name": "鲁班路",
                "pinyin": "LuBan Lu",
                "line": [
                    "4号线"
                ]
            },
            "geometry": {
                "type": "Point",
                "coordinates": [
                    121.475148,
                    31.199221
                ]
            }
        },
        {
            "type": "Feature",
            "properties": {
                "name": "大木桥路",
                "pinyin": "DaMuQiao Lu",
                "line": [
                    "4号线",
                    "12号线"
                ]
            },
            "geometry": {
                "type": "Point",
                "coordinates": [
                    121.463278,
                    31.194057
                ]
            }
        },
        {
            "type": "Feature",
            "properties": {
                "name": "东安路",
                "pinyin": "DongAn Lu",
                "line": [
                    "4号线",
                    "7号线"
                ]
            },
            "geometry": {
                "type": "Point",
                "coordinates": [
                    121.454897,
                    31.190819
                ]
            }
        },
        {
            "type": "Feature",
            "properties": {
                "name": "上海体育场",
                "pinyin": "ShangHai TiYuChang",
                "line": [
                    "4号线"
                ]
            },
            "geometry": {
                "type": "Point",
                "coordinates": [
                    121.443529,
                    31.185605
                ]
            }
        },
        {
            "type": "Feature",
            "properties": {
                "name": "闵行开发区",
                "pinyin": "MinHang KaiFaQu",
                "line": [
                    "5号线"
                ]
            },
            "geometry": {
                "type": "Point",
                "coordinates": [
                    121.369712,
                    31.000627
                ]
            }
        },
        {
            "type": "Feature",
            "properties": {
                "name": "文井路",
                "pinyin": "WenJing Lu",
                "line": [
                    "5号线"
                ]
            },
            "geometry": {
                "type": "Point",
                "coordinates": [
                    121.380775,
                    31.003597
                ]
            }
        },
        {
            "type": "Feature",
            "properties": {
                "name": "华宁路",
                "pinyin": "HuaNing Lu",
                "line": [
                    "5号线"
                ]
            },
            "geometry": {
                "type": "Point",
                "coordinates": [
                    121.395255,
                    31.007467
                ]
            }
        },
        {
            "type": "Feature",
            "properties": {
                "name": "金平路",
                "pinyin": "JinPing Lu",
                "line": [
                    "5号线"
                ]
            },
            "geometry": {
                "type": "Point",
                "coordinates": [
                    121.410186,
                    31.011282
                ]
            }
        },
        {
            "type": "Feature",
            "properties": {
                "name": "东川路",
                "pinyin": "DongChuan Lu",
                "line": [
                    "5号线",
                    "5号线"
                ]
            },
            "geometry": {
                "type": "Point",
                "coordinates": [
                    121.419901,
                    31.018197
                ]
            }
        },
        {
            "type": "Feature",
            "properties": {
                "name": "剑川路",
                "pinyin": "JianChuan Lu",
                "line": [
                    "5号线",
                    "5号线"
                ]
            },
            "geometry": {
                "type": "Point",
                "coordinates": [
                    121.416582,
                    31.026483
                ]
            }
        },
        {
            "type": "Feature",
            "properties": {
                "name": "北桥",
                "pinyin": "BeiQiao",
                "line": [
                    "5号线",
                    "5号线"
                ]
            },
            "geometry": {
                "type": "Point",
                "coordinates": [
                    121.410054,
                    31.045112
                ]
            }
        },
        {
            "type": "Feature",
            "properties": {
                "name": "颛桥",
                "pinyin": "ZhuanQiao",
                "line": [
                    "5号线",
                    "5号线"
                ]
            },
            "geometry": {
                "type": "Point",
                "coordinates": [
                    121.401868,
                    31.067013
                ]
            }
        },
        {
            "type": "Feature",
            "properties": {
                "name": "银都路",
                "pinyin": "YinDu Lu",
                "line": [
                    "5号线",
                    "5号线"
                ]
            },
            "geometry": {
                "type": "Point",
                "coordinates": [
                    121.390264,
                    31.089345
                ]
            }
        },
        {
            "type": "Feature",
            "properties": {
                "name": "春申路",
                "pinyin": "ChunShen Lu",
                "line": [
                    "5号线",
                    "5号线"
                ]
            },
            "geometry": {
                "type": "Point",
                "coordinates": [
                    121.385818,
                    31.09825
                ]
            }
        },
        {
            "type": "Feature",
            "properties": {
                "name": "江川路",
                "pinyin": "JiangChuan Lu",
                "line": [
                    "5号线"
                ]
            },
            "geometry": {
                "type": "Point",
                "coordinates": [
                    121.423474,
                    31.005428
                ]
            }
        },
        {
            "type": "Feature",
            "properties": {
                "name": "西渡",
                "pinyin": "XiDu",
                "line": [
                    "5号线"
                ]
            },
            "geometry": {
                "type": "Point",
                "coordinates": [
                    121.432441,
                    30.98935
                ]
            }
        },
        {
            "type": "Feature",
            "properties": {
                "name": "萧塘",
                "pinyin": "XiaoTang",
                "line": [
                    "5号线"
                ]
            },
            "geometry": {
                "type": "Point",
                "coordinates": [
                    121.441857,
                    30.965888
                ]
            }
        },
        {
            "type": "Feature",
            "properties": {
                "name": "奉浦大道",
                "pinyin": "FengPu DaDao",
                "line": [
                    "5号线"
                ]
            },
            "geometry": {
                "type": "Point",
                "coordinates": [
                    121.448984,
                    30.942055
                ]
            }
        },
        {
            "type": "Feature",
            "properties": {
                "name": "环城东路",
                "pinyin": "HuanCheng DongLu",
                "line": [
                    "5号线"
                ]
            },
            "geometry": {
                "type": "Point",
                "coordinates": [
                    121.463204,
                    30.931168
                ]
            }
        },
        {
            "type": "Feature",
            "properties": {
                "name": "望园路",
                "pinyin": "WangYuan Lu",
                "line": [
                    "5号线"
                ]
            },
            "geometry": {
                "type": "Point",
                "coordinates": [
                    121.48358,
                    30.93194
                ]
            }
        },
        {
            "type": "Feature",
            "properties": {
                "name": "金海湖",
                "pinyin": "JinHaiHu",
                "line": [
                    "5号线"
                ]
            },
            "geometry": {
                "type": "Point",
                "coordinates": [
                    121.492506,
                    30.928805
                ]
            }
        },
        {
            "type": "Feature",
            "properties": {
                "name": "奉贤新城",
                "pinyin": "FengXian XinCheng",
                "line": [
                    "5号线"
                ]
            },
            "geometry": {
                "type": "Point",
                "coordinates": [
                    121.49629,
                    30.913916
                ]
            }
        },
        {
            "type": "Feature",
            "properties": {
                "name": "东方体育中心",
                "pinyin": "DongFang TiYuZhongXin",
                "line": [
                    "6号线",
                    "8号线",
                    "11号线",
                    "11号线"
                ]
            },
            "geometry": {
                "type": "Point",
                "coordinates": [
                    121.480304,
                    31.153366
                ]
            }
        },
        {
            "type": "Feature",
            "properties": {
                "name": "灵岩南路",
                "pinyin": "LingYan NanLu",
                "line": [
                    "6号线"
                ]
            },
            "geometry": {
                "type": "Point",
                "coordinates": [
                    121.495295,
                    31.148665
                ]
            }
        },
        {
            "type": "Feature",
            "properties": {
                "name": "上南路",
                "pinyin": "ShangNanLu",
                "line": [
                    "6号线"
                ]
            },
            "geometry": {
                "type": "Point",
                "coordinates": [
                    121.506151,
                    31.14903
                ]
            }
        },
        {
            "type": "Feature",
            "properties": {
                "name": "华夏西路",
                "pinyin": "HuaXia XiLu",
                "line": [
                    "6号线"
                ]
            },
            "geometry": {
                "type": "Point",
                "coordinates": [
                    121.514539,
                    31.149878
                ]
            }
        },
        {
            "type": "Feature",
            "properties": {
                "name": "高青路",
                "pinyin": "GaoQing Lu",
                "line": [
                    "6号线"
                ]
            },
            "geometry": {
                "type": "Point",
                "coordinates": [
                    121.515787,
                    31.159907
                ]
            }
        },
        {
            "type": "Feature",
            "properties": {
                "name": "东明路",
                "pinyin": "dong ming lu",
                "line": [
                    "6号线",
                    "13号线"
                ]
            },
            "geometry": {
                "type": "Point",
                "coordinates": [
                    121.510868,
                    31.172646
                ]
            }
        },
        {
            "type": "Feature",
            "properties": {
                "name": "高科西路",
                "pinyin": "GaoKe XiLu",
                "line": [
                    "6号线",
                    "7号线"
                ]
            },
            "geometry": {
                "type": "Point",
                "coordinates": [
                    121.509845,
                    31.185761
                ]
            }
        },
        {
            "type": "Feature",
            "properties": {
                "name": "临沂新村",
                "pinyin": "LinYi XinCun",
                "line": [
                    "6号线"
                ]
            },
            "geometry": {
                "type": "Point",
                "coordinates": [
                    121.516695,
                    31.193202
                ]
            }
        },
        {
            "type": "Feature",
            "properties": {
                "name": "上海儿童医学中心",
                "pinyin": "ShangHai ErTong YiXue ZhongXin",
                "line": [
                    "6号线"
                ]
            },
            "geometry": {
                "type": "Point",
                "coordinates": [
                    121.523482,
                    31.203277
                ]
            }
        },
        {
            "type": "Feature",
            "properties": {
                "name": "浦电路(6号线)",
                "pinyin": "PuDian Lu (6 Hao Xian)",
                "line": [
                    "6号线"
                ]
            },
            "geometry": {
                "type": "Point",
                "coordinates": [
                    121.529122,
                    31.220104
                ]
            }
        },
        {
            "type": "Feature",
            "properties": {
                "name": "源深体育中心",
                "pinyin": "YuanShen TiYu ZhongXin",
                "line": [
                    "6号线"
                ]
            },
            "geometry": {
                "type": "Point",
                "coordinates": [
                    121.534642,
                    31.233004
                ]
            }
        },
        {
            "type": "Feature",
            "properties": {
                "name": "民生路",
                "pinyin": "MinShengLu",
                "line": [
                    "6号线"
                ]
            },
            "geometry": {
                "type": "Point",
                "coordinates": [
                    121.543527,
                    31.235851
                ]
            }
        },
        {
            "type": "Feature",
            "properties": {
                "name": "北洋泾路",
                "pinyin": "BeiYangJing Lu",
                "line": [
                    "6号线"
                ]
            },
            "geometry": {
                "type": "Point",
                "coordinates": [
                    121.552314,
                    31.239145
                ]
            }
        },
        {
            "type": "Feature",
            "properties": {
                "name": "德平路",
                "pinyin": "DePing Lu",
                "line": [
                    "6号线"
                ]
            },
            "geometry": {
                "type": "Point",
                "coordinates": [
                    121.564237,
                    31.2454
                ]
            }
        },
        {
            "type": "Feature",
            "properties": {
                "name": "云山路",
                "pinyin": "YunShan Lu",
                "line": [
                    "6号线"
                ]
            },
            "geometry": {
                "type": "Point",
                "coordinates": [
                    121.572775,
                    31.250413
                ]
            }
        },
        {
            "type": "Feature",
            "properties": {
                "name": "金桥路",
                "pinyin": "JinQiao Lu",
                "line": [
                    "6号线"
                ]
            },
            "geometry": {
                "type": "Point",
                "coordinates": [
                    121.581817,
                    31.257084
                ]
            }
        },
        {
            "type": "Feature",
            "properties": {
                "name": "博兴路",
                "pinyin": "BoXing Lu",
                "line": [
                    "6号线"
                ]
            },
            "geometry": {
                "type": "Point",
                "coordinates": [
                    121.586689,
                    31.26352
                ]
            }
        },
        {
            "type": "Feature",
            "properties": {
                "name": "五莲路",
                "pinyin": "WuLian Lu",
                "line": [
                    "6号线"
                ]
            },
            "geometry": {
                "type": "Point",
                "coordinates": [
                    121.587866,
                    31.272025
                ]
            }
        },
        {
            "type": "Feature",
            "properties": {
                "name": "巨峰路",
                "pinyin": "JuFeng Lu",
                "line": [
                    "6号线",
                    "12号线"
                ]
            },
            "geometry": {
                "type": "Point",
                "coordinates": [
                    121.588365,
                    31.280684
                ]
            }
        },
        {
            "type": "Feature",
            "properties": {
                "name": "东靖路",
                "pinyin": "DongJing Lu",
                "line": [
                    "6号线"
                ]
            },
            "geometry": {
                "type": "Point",
                "coordinates": [
                    121.588736,
                    31.290684
                ]
            }
        },
        {
            "type": "Feature",
            "properties": {
                "name": "五洲大道",
                "pinyin": "WuZhou DaDao",
                "line": [
                    "6号线"
                ]
            },
            "geometry": {
                "type": "Point",
                "coordinates": [
                    121.589212,
                    31.302569
                ]
            }
        },
        {
            "type": "Feature",
            "properties": {
                "name": "洲海路",
                "pinyin": "ZhouHai Lu",
                "line": [
                    "6号线"
                ]
            },
            "geometry": {
                "type": "Point",
                "coordinates": [
                    121.589396,
                    31.312229
                ]
            }
        },
        {
            "type": "Feature",
            "properties": {
                "name": "外高桥保税区南",
                "pinyin": "WaiGaoQiao BaoShuiQu Nan",
                "line": [
                    "6号线"
                ]
            },
            "geometry": {
                "type": "Point",
                "coordinates": [
                    121.601963,
                    31.321578
                ]
            }
        },
        {
            "type": "Feature",
            "properties": {
                "name": "航津路",
                "pinyin": "HangJin Lu",
                "line": [
                    "6号线"
                ]
            },
            "geometry": {
                "type": "Point",
                "coordinates": [
                    121.593974,
                    31.335371
                ]
            }
        },
        {
            "type": "Feature",
            "properties": {
                "name": "外高桥保税区北",
                "pinyin": "WaiGaoQiao BaoShuiQu Bei",
                "line": [
                    "6号线"
                ]
            },
            "geometry": {
                "type": "Point",
                "coordinates": [
                    121.586926,
                    31.347802
                ]
            }
        },
        {
            "type": "Feature",
            "properties": {
                "name": "港城路",
                "pinyin": "GangCheng Lu",
                "line": [
                    "6号线",
                    "10号线",
                    "10号线"
                ]
            },
            "geometry": {
                "type": "Point",
                "coordinates": [
                    121.574752,
                    31.353005
                ]
            }
        },
        {
            "type": "Feature",
            "properties": {
                "name": "花木路",
                "pinyin": "HuaMu Lu",
                "line": [
                    "7号线"
                ]
            },
            "geometry": {
                "type": "Point",
                "coordinates": [
                    121.562754,
                    31.211212
                ]
            }
        },
        {
            "type": "Feature",
            "properties": {
                "name": "芳华路",
                "pinyin": "FangHua Lu",
                "line": [
                    "7号线"
                ]
            },
            "geometry": {
                "type": "Point",
                "coordinates": [
                    121.550115,
                    31.19311
                ]
            }
        },
        {
            "type": "Feature",
            "properties": {
                "name": "锦绣路",
                "pinyin": "JinXiu Lu",
                "line": [
                    "7号线"
                ]
            },
            "geometry": {
                "type": "Point",
                "coordinates": [
                    121.540041,
                    31.187592
                ]
            }
        },
        {
            "type": "Feature",
            "properties": {
                "name": "杨高南路",
                "pinyin": "YangGao NanLu",
                "line": [
                    "7号线"
                ]
            },
            "geometry": {
                "type": "Point",
                "coordinates": [
                    121.525087,
                    31.187566
                ]
            }
        },
        {
            "type": "Feature",
            "properties": {
                "name": "云台路",
                "pinyin": "YunTai Lu",
                "line": [
                    "7号线"
                ]
            },
            "geometry": {
                "type": "Point",
                "coordinates": [
                    121.500439,
                    31.182212
                ]
            }
        },
        {
            "type": "Feature",
            "properties": {
                "name": "耀华路",
                "pinyin": "YaoHua Lu",
                "line": [
                    "7号线",
                    "8号线"
                ]
            },
            "geometry": {
                "type": "Point",
                "coordinates": [
                    121.494612,
                    31.178513
                ]
            }
        },
        {
            "type": "Feature",
            "properties": {
                "name": "长清路",
                "pinyin": "chang qing lu",
                "line": [
                    "7号线",
                    "13号线"
                ]
            },
            "geometry": {
                "type": "Point",
                "coordinates": [
                    121.487775,
                    31.174452
                ]
            }
        },
        {
            "type": "Feature",
            "properties": {
                "name": "后滩",
                "pinyin": "HouTan",
                "line": [
                    "7号线"
                ]
            },
            "geometry": {
                "type": "Point",
                "coordinates": [
                    121.473756,
                    31.171918
                ]
            }
        },
        {
            "type": "Feature",
            "properties": {
                "name": "龙华中路",
                "pinyin": "LongHua ZhongLu",
                "line": [
                    "7号线",
                    "12号线"
                ]
            },
            "geometry": {
                "type": "Point",
                "coordinates": [
                    121.457054,
                    31.183843
                ]
            }
        },
        {
            "type": "Feature",
            "properties": {
                "name": "肇嘉浜路",
                "pinyin": "ZhaoJiaBang Lu",
                "line": [
                    "7号线",
                    "9号线"
                ]
            },
            "geometry": {
                "type": "Point",
                "coordinates": [
                    121.450212,
                    31.199436
                ]
            }
        },
        {
            "type": "Feature",
            "properties": {
                "name": "昌平路",
                "pinyin": "ChangPing Lu",
                "line": [
                    "7号线"
                ]
            },
            "geometry": {
                "type": "Point",
                "coordinates": [
                    121.442617,
                    31.233749
                ]
            }
        },
        {
            "type": "Feature",
            "properties": {
                "name": "长寿路",
                "pinyin": "ChangShou Lu",
                "line": [
                    "7号线",
                    "13号线"
                ]
            },
            "geometry": {
                "type": "Point",
                "coordinates": [
                    121.438272,
                    31.24086
                ]
            }
        },
        {
            "type": "Feature",
            "properties": {
                "name": "岚皋路",
                "pinyin": "LanGao Lu",
                "line": [
                    "7号线"
                ]
            },
            "geometry": {
                "type": "Point",
                "coordinates": [
                    121.421939,
                    31.256198
                ]
            }
        },
        {
            "type": "Feature",
            "properties": {
                "name": "新村路",
                "pinyin": "XinCun Lu",
                "line": [
                    "7号线"
                ]
            },
            "geometry": {
                "type": "Point",
                "coordinates": [
                    121.422682,
                    31.263952
                ]
            }
        },
        {
            "type": "Feature",
            "properties": {
                "name": "大华三路",
                "pinyin": "DaHua San Lu",
                "line": [
                    "7号线"
                ]
            },
            "geometry": {
                "type": "Point",
                "coordinates": [
                    121.422949,
                    31.274047
                ]
            }
        },
        {
            "type": "Feature",
            "properties": {
                "name": "行知路",
                "pinyin": "XingZhiLu",
                "line": [
                    "7号线"
                ]
            },
            "geometry": {
                "type": "Point",
                "coordinates": [
                    121.421493,
                    31.284942
                ]
            }
        },
        {
            "type": "Feature",
            "properties": {
                "name": "大场镇",
                "pinyin": "DaChangZhen",
                "line": [
                    "7号线"
                ]
            },
            "geometry": {
                "type": "Point",
                "coordinates": [
                    121.416548,
                    31.29332
                ]
            }
        },
        {
            "type": "Feature",
            "properties": {
                "name": "场中路",
                "pinyin": "ChangZhong Lu",
                "line": [
                    "7号线"
                ]
            },
            "geometry": {
                "type": "Point",
                "coordinates": [
                    121.413661,
                    31.303685
                ]
            }
        },
        {
            "type": "Feature",
            "properties": {
                "name": "上大路",
                "pinyin": "ShangDa Lu",
                "line": [
                    "7号线"
                ]
            },
            "geometry": {
                "type": "Point",
                "coordinates": [
                    121.40858,
                    31.315071
                ]
            }
        },
        {
            "type": "Feature",
            "properties": {
                "name": "南陈路",
                "pinyin": "NanChen Lu",
                "line": [
                    "7号线"
                ]
            },
            "geometry": {
                "type": "Point",
                "coordinates": [
                    121.398863,
                    31.321437
                ]
            }
        },
        {
            "type": "Feature",
            "properties": {
                "name": "上海大学",
                "pinyin": "ShangHai DaXue",
                "line": [
                    "7号线"
                ]
            },
            "geometry": {
                "type": "Point",
                "coordinates": [
                    121.388884,
                    31.320586
                ]
            }
        },
        {
            "type": "Feature",
            "properties": {
                "name": "祁华路",
                "pinyin": "QiHua Lu",
                "line": [
                    "7号线"
                ]
            },
            "geometry": {
                "type": "Point",
                "coordinates": [
                    121.373569,
                    31.322315
                ]
            }
        },
        {
            "type": "Feature",
            "properties": {
                "name": "顾村公园",
                "pinyin": "GuCun GongYuan",
                "line": [
                    "7号线",
                    "15号线"
                ]
            },
            "geometry": {
                "type": "Point",
                "coordinates": [
                    121.373009,
                    31.344594
                ]
            }
        },
        {
            "type": "Feature",
            "properties": {
                "name": "刘行",
                "pinyin": "LiuHang",
                "line": [
                    "7号线"
                ]
            },
            "geometry": {
                "type": "Point",
                "coordinates": [
                    121.362376,
                    31.357586
                ]
            }
        },
        {
            "type": "Feature",
            "properties": {
                "name": "潘广路",
                "pinyin": "PanGuang Lu",
                "line": [
                    "7号线"
                ]
            },
            "geometry": {
                "type": "Point",
                "coordinates": [
                    121.355845,
                    31.364182
                ]
            }
        },
        {
            "type": "Feature",
            "properties": {
                "name": "罗南新村",
                "pinyin": "LuoNan XinCun",
                "line": [
                    "7号线"
                ]
            },
            "geometry": {
                "type": "Point",
                "coordinates": [
                    121.35747,
                    31.388831
                ]
            }
        },
        {
            "type": "Feature",
            "properties": {
                "name": "美兰湖",
                "pinyin": "MeiLanHu",
                "line": [
                    "7号线"
                ]
            },
            "geometry": {
                "type": "Point",
                "coordinates": [
                    121.349966,
                    31.401949
                ]
            }
        },
        {
            "type": "Feature",
            "properties": {
                "name": "沈杜公路",
                "pinyin": "ShenDu GongLu",
                "line": [
                    "8号线",
                    "浦江线"
                ]
            },
            "geometry": {
                "type": "Point",
                "coordinates": [
                    121.512272,
                    31.061427
                ]
            }
        },
        {
            "type": "Feature",
            "properties": {
                "name": "联航路",
                "pinyin": "LianHang Lu",
                "line": [
                    "8号线"
                ]
            },
            "geometry": {
                "type": "Point",
                "coordinates": [
                    121.510594,
                    31.073567
                ]
            }
        },
        {
            "type": "Feature",
            "properties": {
                "name": "江月路",
                "pinyin": "JiangYue Lu",
                "line": [
                    "8号线"
                ]
            },
            "geometry": {
                "type": "Point",
                "coordinates": [
                    121.508603,
                    31.084253
                ]
            }
        },
        {
            "type": "Feature",
            "properties": {
                "name": "浦江镇",
                "pinyin": "PuJiangZhen",
                "line": [
                    "8号线"
                ]
            },
            "geometry": {
                "type": "Point",
                "coordinates": [
                    121.506272,
                    31.09659
                ]
            }
        },
        {
            "type": "Feature",
            "properties": {
                "name": "芦恒路",
                "pinyin": "LuHeng Lu",
                "line": [
                    "8号线"
                ]
            },
            "geometry": {
                "type": "Point",
                "coordinates": [
                    121.497842,
                    31.119015
                ]
            }
        },
        {
            "type": "Feature",
            "properties": {
                "name": "凌兆新村",
                "pinyin": "LingZhao XinCun",
                "line": [
                    "8号线"
                ]
            },
            "geometry": {
                "type": "Point",
                "coordinates": [
                    121.489663,
                    31.141301
                ]
            }
        },
        {
            "type": "Feature",
            "properties": {
                "name": "杨思",
                "pinyin": "YangSi",
                "line": [
                    "8号线"
                ]
            },
            "geometry": {
                "type": "Point",
                "coordinates": [
                    121.493443,
                    31.161054
                ]
            }
        },
        {
            "type": "Feature",
            "properties": {
                "name": "成山路",
                "pinyin": "cheng shan lu",
                "line": [
                    "8号线",
                    "13号线"
                ]
            },
            "geometry": {
                "type": "Point",
                "coordinates": [
                    121.49622,
                    31.170735
                ]
            }
        },
        {
            "type": "Feature",
            "properties": {
                "name": "中华艺术宫",
                "pinyin": "ZhongHua YiShu Gong",
                "line": [
                    "8号线"
                ]
            },
            "geometry": {
                "type": "Point",
                "coordinates": [
                    121.493626,
                    31.185242
                ]
            }
        },
        {
            "type": "Feature",
            "properties": {
                "name": "陆家浜路",
                "pinyin": "LuJiaBang Lu",
                "line": [
                    "8号线",
                    "9号线"
                ]
            },
            "geometry": {
                "type": "Point",
                "coordinates": [
                    121.486115,
                    31.211789
                ]
            }
        },
        {
            "type": "Feature",
            "properties": {
                "name": "老西门",
                "pinyin": "LaoXiMen",
                "line": [
                    "8号线",
                    "10号线",
                    "10号线"
                ]
            },
            "geometry": {
                "type": "Point",
                "coordinates": [
                    121.483793,
                    31.219014
                ]
            }
        },
        {
            "type": "Feature",
            "properties": {
                "name": "大世界",
                "pinyin": "DaShiJie",
                "line": [
                    "8号线"
                ]
            },
            "geometry": {
                "type": "Point",
                "coordinates": [
                    121.479326,
                    31.227182
                ]
            }
        },
        {
            "type": "Feature",
            "properties": {
                "name": "曲阜路",
                "pinyin": "QuFu Lu",
                "line": [
                    "8号线",
                    "12号线"
                ]
            },
            "geometry": {
                "type": "Point",
                "coordinates": [
                    121.471543,
                    31.242307
                ]
            }
        },
        {
            "type": "Feature",
            "properties": {
                "name": "中兴路",
                "pinyin": "ZhongXing Lu",
                "line": [
                    "8号线"
                ]
            },
            "geometry": {
                "type": "Point",
                "coordinates": [
                    121.469026,
                    31.253228
                ]
            }
        },
        {
            "type": "Feature",
            "properties": {
                "name": "西藏北路",
                "pinyin": "XiZang BeiLu",
                "line": [
                    "8号线"
                ]
            },
            "geometry": {
                "type": "Point",
                "coordinates": [
                    121.468769,
                    31.263505
                ]
            }
        },
        {
            "type": "Feature",
            "properties": {
                "name": "曲阳路",
                "pinyin": "QuYang Lu",
                "line": [
                    "8号线"
                ]
            },
            "geometry": {
                "type": "Point",
                "coordinates": [
                    121.491138,
                    31.276524
                ]
            }
        },
        {
            "type": "Feature",
            "properties": {
                "name": "四平路",
                "pinyin": "SiPing Lu",
                "line": [
                    "8号线",
                    "10号线",
                    "10号线"
                ]
            },
            "geometry": {
                "type": "Point",
                "coordinates": [
                    121.501488,
                    31.27488
                ]
            }
        },
        {
            "type": "Feature",
            "properties": {
                "name": "鞍山新村",
                "pinyin": "AnShan XinCun",
                "line": [
                    "8号线"
                ]
            },
            "geometry": {
                "type": "Point",
                "coordinates": [
                    121.509685,
                    31.273242
                ]
            }
        },
        {
            "type": "Feature",
            "properties": {
                "name": "江浦路",
                "pinyin": "JiangPu Lu",
                "line": [
                    "8号线"
                ]
            },
            "geometry": {
                "type": "Point",
                "coordinates": [
                    121.518379,
                    31.274946
                ]
            }
        },
        {
            "type": "Feature",
            "properties": {
                "name": "黄兴路",
                "pinyin": "HuangXing Lu",
                "line": [
                    "8号线"
                ]
            },
            "geometry": {
                "type": "Point",
                "coordinates": [
                    121.528401,
                    31.278814
                ]
            }
        },
        {
            "type": "Feature",
            "properties": {
                "name": "延吉中路",
                "pinyin": "YanJi ZhongLu",
                "line": [
                    "8号线"
                ]
            },
            "geometry": {
                "type": "Point",
                "coordinates": [
                    121.534941,
                    31.288543
                ]
            }
        },
        {
            "type": "Feature",
            "properties": {
                "name": "黄兴公园",
                "pinyin": "HuangXing GongYuan",
                "line": [
                    "8号线"
                ]
            },
            "geometry": {
                "type": "Point",
                "coordinates": [
                    121.533383,
                    31.295389
                ]
            }
        },
        {
            "type": "Feature",
            "properties": {
                "name": "翔殷路",
                "pinyin": "XiangYin Lu",
                "line": [
                    "8号线"
                ]
            },
            "geometry": {
                "type": "Point",
                "coordinates": [
                    121.531974,
                    31.305002
                ]
            }
        },
        {
            "type": "Feature",
            "properties": {
                "name": "嫩江路",
                "pinyin": "NenJiang Lu",
                "line": [
                    "8号线"
                ]
            },
            "geometry": {
                "type": "Point",
                "coordinates": [
                    121.531954,
                    31.314804
                ]
            }
        },
        {
            "type": "Feature",
            "properties": {
                "name": "市光路",
                "pinyin": "ShiGuang Lu",
                "line": [
                    "8号线"
                ]
            },
            "geometry": {
                "type": "Point",
                "coordinates": [
                    121.531933,
                    31.322724
                ]
            }
        },
        {
            "type": "Feature",
            "properties": {
                "name": "曹路",
                "pinyin": "CaoLu",
                "line": [
                    "9号线"
                ]
            },
            "geometry": {
                "type": "Point",
                "coordinates": [
                    121.683046,
                    31.271272
                ]
            }
        },
        {
            "type": "Feature",
            "properties": {
                "name": "民雷路",
                "pinyin": "MinLei Lu",
                "line": [
                    "9号线"
                ]
            },
            "geometry": {
                "type": "Point",
                "coordinates": [
                    121.668125,
                    31.268335
                ]
            }
        },
        {
            "type": "Feature",
            "properties": {
                "name": "顾唐路",
                "pinyin": "GuTang Lu",
                "line": [
                    "9号线"
                ]
            },
            "geometry": {
                "type": "Point",
                "coordinates": [
                    121.656465,
                    31.266074
                ]
            }
        },
        {
            "type": "Feature",
            "properties": {
                "name": "金海路",
                "pinyin": "JinHai Lu",
                "line": [
                    "9号线",
                    "12号线"
                ]
            },
            "geometry": {
                "type": "Point",
                "coordinates": [
                    121.638629,
                    31.263141
                ]
            }
        },
        {
            "type": "Feature",
            "properties": {
                "name": "金吉路",
                "pinyin": "JinJi Lu",
                "line": [
                    "9号线"
                ]
            },
            "geometry": {
                "type": "Point",
                "coordinates": [
                    121.628479,
                    31.264309
                ]
            }
        },
        {
            "type": "Feature",
            "properties": {
                "name": "金桥",
                "pinyin": "JinQiao",
                "line": [
                    "9号线"
                ]
            },
            "geometry": {
                "type": "Point",
                "coordinates": [
                    121.611336,
                    31.26085
                ]
            }
        },
        {
            "type": "Feature",
            "properties": {
                "name": "台儿庄路",
                "pinyin": "TaiErZhuang Lu",
                "line": [
                    "9号线"
                ]
            },
            "geometry": {
                "type": "Point",
                "coordinates": [
                    121.597458,
                    31.252825
                ]
            }
        },
        {
            "type": "Feature",
            "properties": {
                "name": "蓝天路",
                "pinyin": "LanTian Lu",
                "line": [
                    "9号线"
                ]
            },
            "geometry": {
                "type": "Point",
                "coordinates": [
                    121.577978,
                    31.241017
                ]
            }
        },
        {
            "type": "Feature",
            "properties": {
                "name": "芳甸路",
                "pinyin": "FangDian Lu",
                "line": [
                    "9号线"
                ]
            },
            "geometry": {
                "type": "Point",
                "coordinates": [
                    121.558431,
                    31.231845
                ]
            }
        },
        {
            "type": "Feature",
            "properties": {
                "name": "杨高中路",
                "pinyin": "YangGao ZhongLu",
                "line": [
                    "9号线"
                ]
            },
            "geometry": {
                "type": "Point",
                "coordinates": [
                    121.548664,
                    31.22751
                ]
            }
        },
        {
            "type": "Feature",
            "properties": {
                "name": "商城路",
                "pinyin": "ShangCheng Lu",
                "line": [
                    "9号线"
                ]
            },
            "geometry": {
                "type": "Point",
                "coordinates": [
                    121.516275,
                    31.230258
                ]
            }
        },
        {
            "type": "Feature",
            "properties": {
                "name": "小南门",
                "pinyin": "XiaoNanMen",
                "line": [
                    "9号线"
                ]
            },
            "geometry": {
                "type": "Point",
                "coordinates": [
                    121.498398,
                    31.216866
                ]
            }
        },
        {
            "type": "Feature",
            "properties": {
                "name": "马当路",
                "pinyin": "MaDang Lu",
                "line": [
                    "9号线",
                    "13号线"
                ]
            },
            "geometry": {
                "type": "Point",
                "coordinates": [
                    121.477256,
                    31.20952
                ]
            }
        },
        {
            "type": "Feature",
            "properties": {
                "name": "打浦桥",
                "pinyin": "DaPuQiao",
                "line": [
                    "9号线"
                ]
            },
            "geometry": {
                "type": "Point",
                "coordinates": [
                    121.468681,
                    31.206309
                ]
            }
        },
        {
            "type": "Feature",
            "properties": {
                "name": "嘉善路",
                "pinyin": "JiaShan Lu",
                "line": [
                    "9号线",
                    "12号线"
                ]
            },
            "geometry": {
                "type": "Point",
                "coordinates": [
                    121.460704,
                    31.20282
                ]
            }
        },
        {
            "type": "Feature",
            "properties": {
                "name": "桂林路",
                "pinyin": "GuiLin Lu",
                "line": [
                    "9号线",
                    "15号线"
                ]
            },
            "geometry": {
                "type": "Point",
                "coordinates": [
                    121.418064,
                    31.174791
                ]
            }
        },
        {
            "type": "Feature",
            "properties": {
                "name": "漕河泾开发区",
                "pinyin": "CaoHeJing KaiFaQu",
                "line": [
                    "9号线"
                ]
            },
            "geometry": {
                "type": "Point",
                "coordinates": [
                    121.397769,
                    31.170644
                ]
            }
        },
        {
            "type": "Feature",
            "properties": {
                "name": "合川路",
                "pinyin": "HeChuan Lu",
                "line": [
                    "9号线"
                ]
            },
            "geometry": {
                "type": "Point",
                "coordinates": [
                    121.384772,
                    31.166542
                ]
            }
        },
        {
            "type": "Feature",
            "properties": {
                "name": "星中路",
                "pinyin": "XingZhong Lu",
                "line": [
                    "9号线"
                ]
            },
            "geometry": {
                "type": "Point",
                "coordinates": [
                    121.368903,
                    31.158109
                ]
            }
        },
        {
            "type": "Feature",
            "properties": {
                "name": "七宝",
                "pinyin": "QiBao",
                "line": [
                    "9号线"
                ]
            },
            "geometry": {
                "type": "Point",
                "coordinates": [
                    121.349221,
                    31.155287
                ]
            }
        },
        {
            "type": "Feature",
            "properties": {
                "name": "中春路",
                "pinyin": "ZhongChun Lu",
                "line": [
                    "9号线"
                ]
            },
            "geometry": {
                "type": "Point",
                "coordinates": [
                    121.3377,
                    31.149415
                ]
            }
        },
        {
            "type": "Feature",
            "properties": {
                "name": "九亭",
                "pinyin": "JiuTing",
                "line": [
                    "9号线"
                ]
            },
            "geometry": {
                "type": "Point",
                "coordinates": [
                    121.319423,
                    31.137252
                ]
            }
        },
        {
            "type": "Feature",
            "properties": {
                "name": "泗泾",
                "pinyin": "SiJing",
                "line": [
                    "9号线"
                ]
            },
            "geometry": {
                "type": "Point",
                "coordinates": [
                    121.260247,
                    31.118272
                ]
            }
        },
        {
            "type": "Feature",
            "properties": {
                "name": "佘山",
                "pinyin": "SheShan",
                "line": [
                    "9号线"
                ]
            },
            "geometry": {
                "type": "Point",
                "coordinates": [
                    121.229686,
                    31.104097
                ]
            }
        },
        {
            "type": "Feature",
            "properties": {
                "name": "洞泾",
                "pinyin": "DongJing",
                "line": [
                    "9号线"
                ]
            },
            "geometry": {
                "type": "Point",
                "coordinates": [
                    121.230473,
                    31.084492
                ]
            }
        },
        {
            "type": "Feature",
            "properties": {
                "name": "松江大学城",
                "pinyin": "SongJiang DaXueCheng",
                "line": [
                    "9号线"
                ]
            },
            "geometry": {
                "type": "Point",
                "coordinates": [
                    121.232577,
                    31.053984
                ]
            }
        },
        {
            "type": "Feature",
            "properties": {
                "name": "松江新城",
                "pinyin": "SongJiang XinCheng",
                "line": [
                    "9号线"
                ]
            },
            "geometry": {
                "type": "Point",
                "coordinates": [
                    121.230739,
                    31.030295
                ]
            }
        },
        {
            "type": "Feature",
            "properties": {
                "name": "松江体育中心",
                "pinyin": "SongJiang TiYuZhongXin",
                "line": [
                    "9号线"
                ]
            },
            "geometry": {
                "type": "Point",
                "coordinates": [
                    121.230504,
                    31.016038
                ]
            }
        },
        {
            "type": "Feature",
            "properties": {
                "name": "醉白池",
                "pinyin": "ZuiBaiChi",
                "line": [
                    "9号线"
                ]
            },
            "geometry": {
                "type": "Point",
                "coordinates": [
                    121.229361,
                    31.001125
                ]
            }
        },
        {
            "type": "Feature",
            "properties": {
                "name": "松江南站",
                "pinyin": "SongJiang NanZhan",
                "line": [
                    "9号线"
                ]
            },
            "geometry": {
                "type": "Point",
                "coordinates": [
                    121.230884,
                    30.984818
                ]
            }
        },
        {
            "type": "Feature",
            "properties": {
                "name": "基隆路",
                "pinyin": "JiLong Lu",
                "line": [
                    "10号线",
                    "10号线"
                ]
            },
            "geometry": {
                "type": "Point",
                "coordinates": [
                    121.590411,
                    31.351311
                ]
            }
        },
        {
            "type": "Feature",
            "properties": {
                "name": "高桥",
                "pinyin": "GaoQiao",
                "line": [
                    "10号线",
                    "10号线"
                ]
            },
            "geometry": {
                "type": "Point",
                "coordinates": [
                    121.562971,
                    31.352622
                ]
            }
        },
        {
            "type": "Feature",
            "properties": {
                "name": "高桥西",
                "pinyin": "Gao QiaoXi",
                "line": [
                    "10号线",
                    "10号线"
                ]
            },
            "geometry": {
                "type": "Point",
                "coordinates": [
                    121.54928,
                    31.351489
                ]
            }
        },
        {
            "type": "Feature",
            "properties": {
                "name": "双江路",
                "pinyin": "ShuangJiang Lu",
                "line": [
                    "10号线",
                    "10号线"
                ]
            },
            "geometry": {
                "type": "Point",
                "coordinates": [
                    121.539425,
                    31.353601
                ]
            }
        },
        {
            "type": "Feature",
            "properties": {
                "name": "国帆路",
                "pinyin": "GuoFan Lu",
                "line": [
                    "10号线",
                    "10号线"
                ]
            },
            "geometry": {
                "type": "Point",
                "coordinates": [
                    121.513238,
                    31.339761
                ]
            }
        },
        {
            "type": "Feature",
            "properties": {
                "name": "新江湾城",
                "pinyin": "XinJiangWanCheng",
                "line": [
                    "10号线",
                    "10号线"
                ]
            },
            "geometry": {
                "type": "Point",
                "coordinates": [
                    121.506951,
                    31.328496
                ]
            }
        },